{
"type": "FeatureCollection",
"name": "StateCenters_wZika",
"crs": { "type": "name", "properties": { "name": "urn:ogc:def:crs:OGC:1.3:CRS84" } },
"features": [
{ "type": "Feature", "properties": { "NAME": "West Virginia", "lon": -80.614, "lat": 38.643, "2": "NULL", "3": "NULL", "4": 5, "5": 6, "6": 6, "7": 6, "8": 9, "9": 11, "10": 11, "11": 11, "12": 11 }, "geometry": { "type": "Point", "coordinates": [ -80.6137068997092, 38.642567026153976 ] } },
{ "type": "Feature", "properties": { "NAME": "Florida", "lon": -82.466, "lat": 28.477, "2": 9, "3": 42, "4": 78, "5": 95, "6": 132, "7": 206, "8": 322, "9": 571, "10": 707, "11": 708, "12": 785 }, "geometry": { "type": "Point", "coordinates": [ -82.466418388883767, 28.477058415081203 ] } },
{ "type": "Feature", "properties": { "NAME": "Illinois", "lon": -89.149, "lat": 40.124, "2": 3, "3": 5, "4": 10, "5": 13, "6": 16, "7": 23, "8": 33, "9": 51, "10": 75, "11": 81, "12": 85 }, "geometry": { "type": "Point", "coordinates": [ -89.148640386728246, 40.124198721633846 ] } },
{ "type": "Feature", "properties": { "NAME": "Minnesota", "lon": -94.198, "lat": 46.349, "2": 1, "3": 3, "4": 12, "5": 17, "6": 17, "7": 21, "8": 29, "9": 39, "10": 47, "11": 53, "12": 55 }, "geometry": { "type": "Point", "coordinates": [ -94.198348719913639, 46.349289183887969 ] } },
{ "type": "Feature", "properties": { "NAME": "Maryland", "lon": -76.687, "lat": 38.946, "2": "NULL", "3": 3, "4": 6, "5": 17, "6": 21, "7": 31, "8": 54, "9": 89, "10": 102, "11": 107, "12": 125 }, "geometry": { "type": "Point", "coordinates": [ -76.687177340980199, 38.946493959175555 ] } },
{ "type": "Feature", "properties": { "NAME": "Rhode Island", "lon": -71.525, "lat": 41.595, "2": "NULL", "3": "NULL", "4": "NULL", "5": "NULL", "6": 4, "7": 16, "8": 18, "9": 29, "10": 32, "11": 33, "12": 35 }, "geometry": { "type": "Point", "coordinates": [ -71.524723548751226, 41.594638897784108 ] } },
{ "type": "Feature", "properties": { "NAME": "Idaho", "lon": -114.659, "lat": 44.389, "2": "NULL", "3": "NULL", "4": "NULL", "5": "NULL", "6": "NULL", "7": "NULL", "8": "NULL", "9": 2, "10": 3, "11": 4, "12": 4 }, "geometry": { "type": "Point", "coordinates": [ -114.659414931030867, 44.389054943578536 ] } },
{ "type": "Feature", "properties": { "NAME": "New Hampshire", "lon": -71.571, "lat": 43.68, "2": "NULL", "3": "NULL", "4": 2, "5": 3, "6": 4, "7": 4, "8": 8, "9": 8, "10": 10, "11": 11, "12": 12 }, "geometry": { "type": "Point", "coordinates": [ -71.571242793284497, 43.680236921879136 ] } },
{ "type": "Feature", "properties": { "NAME": "North Carolina", "lon": -79.131, "lat": 35.526, "2": "NULL", "3": 2, "4": 8, "5": 11, "6": 11, "7": 17, "8": 30, "9": 52, "10": 66, "11": 73, "12": 83 }, "geometry": { "type": "Point", "coordinates": [ -79.13088404008893, 35.52603675739833 ] } },
{ "type": "Feature", "properties": { "NAME": "Vermont", "lon": -72.663, "lat": 44.075, "2": "NULL", "3": "NULL", "4": "NULL", "5": 1, "6": 1, "7": 2, "8": 6, "9": 7, "10": 7, "11": 10, "12": 10 }, "geometry": { "type": "Point", "coordinates": [ -72.662630812305011, 44.07524794699296 ] } },
{ "type": "Feature", "properties": { "NAME": "Connecticut", "lon": -72.738, "lat": 41.575, "2": "NULL", "3": "NULL", "4": 1, "5": 1, "6": 1, "7": 27, "8": 39, "9": 58, "10": 58, "11": 58, "12": 58 }, "geometry": { "type": "Point", "coordinates": [ -72.738257674179295, 41.575164150071799 ] } },
{ "type": "Feature", "properties": { "NAME": "Delaware", "lon": -75.452, "lat": 38.995, "2": "NULL", "3": 1, "4": 3, "5": 3, "6": 4, "7": 5, "8": 10, "9": 11, "10": 15, "11": 16, "12": 17 }, "geometry": { "type": "Point", "coordinates": [ -75.452492578378212, 38.994974845423933 ] } },
{ "type": "Feature", "properties": { "NAME": "New Mexico", "lon": -106.108, "lat": 34.421, "2": "NULL", "3": "NULL", "4": "NULL", "5": 1, "6": 3, "7": 3, "8": 3, "9": 4, "10": 7, "11": 9, "12": 9 }, "geometry": { "type": "Point", "coordinates": [ -106.108443861830693, 34.4213012848139 ] } },
{ "type": "Feature", "properties": { "NAME": "California", "lon": -119.664, "lat": 37.215, "2": 2, "3": 10, "4": 29, "5": 40, "6": 48, "7": 69, "8": 87, "9": 210, "10": 277, "11": 325, "12": 375 }, "geometry": { "type": "Point", "coordinates": [ -119.663869752476344, 37.215331504272363 ] } },
{ "type": "Feature", "properties": { "NAME": "New Jersey", "lon": -74.656, "lat": 40.11, "2": 1, "3": 1, "4": 5, "5": 9, "6": 17, "7": 45, "8": 50, "9": 91, "10": 133, "11": 157, "12": 164 }, "geometry": { "type": "Point", "coordinates": [ -74.655612463530218, 40.110179769133318 ] } },
{ "type": "Feature", "properties": { "NAME": "Wisconsin", "lon": -89.733, "lat": 44.64, "2": "NULL", "3": "NULL", "4": "NULL", "5": "NULL", "6": 2, "7": 2, "8": 17, "9": 24, "10": 40, "11": 45, "12": 48 }, "geometry": { "type": "Point", "coordinates": [ -89.732968024083277, 44.639942960668577 ] } },
{ "type": "Feature", "properties": { "NAME": "Oregon", "lon": -120.605, "lat": 43.94, "2": "NULL", "3": 5, "4": 6, "5": 6, "6": 6, "7": 7, "8": 14, "9": 19, "10": 27, "11": 34, "12": 39 }, "geometry": { "type": "Point", "coordinates": [ -120.605256220369554, 43.940451387357669 ] } },
{ "type": "Feature", "properties": { "NAME": "Nebraska", "lon": -99.811, "lat": 41.527, "2": "NULL", "3": 2, "4": 2, "5": 2, "6": 2, "7": 2, "8": 4, "9": 8, "10": 11, "11": 12, "12": 13 }, "geometry": { "type": "Point", "coordinates": [ -99.81086234957445, 41.527147932702583 ] } },
{ "type": "Feature", "properties": { "NAME": "Pennsylvania", "lon": -77.839, "lat": 40.897, "2": "NULL", "3": 5, "4": 12, "5": 17, "6": 23, "7": 35, "8": 58, "9": 95, "10": 132, "11": 149, "12": 161 }, "geometry": { "type": "Point", "coordinates": [ -77.838937995605477, 40.896700502251534 ] } },
{ "type": "Feature", "properties": { "NAME": "Washington", "lon": -120.593, "lat": 47.412, "2": "NULL", "3": 1, "4": 2, "5": 2, "6": 4, "7": 9, "8": 16, "9": 28, "10": 34, "11": 55, "12": 58 }, "geometry": { "type": "Point", "coordinates": [ -120.592818956109554, 47.41161850353452 ] } },
{ "type": "Feature", "properties": { "NAME": "Louisiana", "lon": -91.814, "lat": 30.909, "2": "NULL", "3": 1, "4": 4, "5": 4, "6": 4, "7": 6, "8": 9, "9": 26, "10": 32, "11": 32, "12": 35 }, "geometry": { "type": "Point", "coordinates": [ -91.814232681001783, 30.909071344936301 ] } },
{ "type": "Feature", "properties": { "NAME": "Georgia", "lon": -83.427, "lat": 32.639, "2": 1, "3": 2, "4": 11, "5": 13, "6": 17, "7": 29, "8": 42, "9": 75, "10": 86, "11": 101, "12": 104 }, "geometry": { "type": "Point", "coordinates": [ -83.427246263090851, 32.638641836979723 ] } },
{ "type": "Feature", "properties": { "NAME": "Alabama", "lon": -86.845, "lat": 32.757, "2": "NULL", "3": 1, "4": 2, "5": 2, "6": 2, "7": 2, "8": 11, "9": 24, "10": 27, "11": 30, "12": 30 }, "geometry": { "type": "Point", "coordinates": [ -86.844520984902459, 32.756879932397702 ] } },
{ "type": "Feature", "properties": { "NAME": "Utah", "lon": -111.678, "lat": 39.324, "2": "NULL", "3": "NULL", "4": 2, "5": 2, "6": 2, "7": 3, "8": 6, "9": 12, "10": 15, "11": 15, "12": 19 }, "geometry": { "type": "Point", "coordinates": [ -111.6782499535977, 39.323768711886409 ] } },
{ "type": "Feature", "properties": { "NAME": "Ohio", "lon": -82.709, "lat": 40.415, "2": "NULL", "3": 5, "4": 9, "5": 12, "6": 14, "7": 21, "8": 26, "9": 36, "10": 53, "11": 71, "12": 75 }, "geometry": { "type": "Point", "coordinates": [ -82.709377239123086, 40.415487035729726 ] } },
{ "type": "Feature", "properties": { "NAME": "Texas", "lon": -99.317, "lat": 31.447, "2": 8, "3": 15, "4": 27, "5": 30, "6": 40, "7": 53, "8": 89, "9": 161, "10": 218, "11": 237, "12": 268 }, "geometry": { "type": "Point", "coordinates": [ -99.31711694240623, 31.447201788145971 ] } },
{ "type": "Feature", "properties": { "NAME": "Colorado", "lon": -105.548, "lat": 38.999, "2": "NULL", "3": 2, "4": 2, "5": 2, "6": 4, "7": 10, "8": 19, "9": 27, "10": 36, "11": 46, "12": 50 }, "geometry": { "type": "Point", "coordinates": [ -105.54782080150963, 38.998532031209358 ] } },
{ "type": "Feature", "properties": { "NAME": "South Carolina", "lon": -80.865, "lat": 33.878, "2": "NULL", "3": "NULL", "4": "NULL", "5": 1, "6": 1, "7": 6, "8": 28, "9": 31, "10": 31, "11": 53, "12": 54 }, "geometry": { "type": "Point", "coordinates": [ -80.864588087759103, 33.877749405611375 ] } },
{ "type": "Feature", "properties": { "NAME": "Oklahoma", "lon": -97.508, "lat": 35.583, "2": "NULL", "3": "NULL", "4": 3, "5": 4, "6": 5, "7": 12, "8": 13, "9": 20, "10": 27, "11": 29, "12": 29 }, "geometry": { "type": "Point", "coordinates": [ -97.508242765265152, 35.583466439803935 ] } },
{ "type": "Feature", "properties": { "NAME": "Tennessee", "lon": -86.343, "lat": 35.843, "2": "NULL", "3": 1, "4": 1, "5": 2, "6": 4, "7": 10, "8": 22, "9": 38, "10": 52, "11": 55, "12": 58 }, "geometry": { "type": "Point", "coordinates": [ -86.343412305427435, 35.842980139111638 ] } },
{ "type": "Feature", "properties": { "NAME": "Wyoming", "lon": -107.551, "lat": 43.0, "2": "NULL", "3": "NULL", "4": "NULL", "5": "NULL", "6": "NULL", "7": "NULL", "8": "NULL", "9": "NULL", "10": 2, "11": 2, "12": 2 }, "geometry": { "type": "Point", "coordinates": [ -107.551395881916832, 42.999538281945327 ] } },
{ "type": "Feature", "properties": { "NAME": "Hawaii", "lon": -158.11, "lat": 20.995, "2": 3, "3": 4, "4": 5, "5": 7, "6": 10, "7": 10, "8": 10, "9": 11, "10": 14, "11": 14, "12": 14 }, "geometry": { "type": "Point", "coordinates": [ -158.109973806952297, 20.995111199068841 ] } },
{ "type": "Feature", "properties": { "NAME": "North Dakota", "lon": -100.469, "lat": 47.446, "2": "NULL", "3": "NULL", "4": "NULL", "5": "NULL", "6": "NULL", "7": "NULL", "8": 1, "9": 1, "10": 2, "11": 2, "12": 2 }, "geometry": { "type": "Point", "coordinates": [ -100.469318207128438, 47.446314063606295 ] } },
{ "type": "Feature", "properties": { "NAME": "Kentucky", "lon": -85.291, "lat": 37.527, "2": "NULL", "3": "NULL", "4": 3, "5": 5, "6": 6, "7": 7, "8": 10, "9": 20, "10": 24, "11": 24, "12": 24 }, "geometry": { "type": "Point", "coordinates": [ -85.290558439731171, 37.526614847430928 ] } },
{ "type": "Feature", "properties": { "NAME": "New York", "lon": -75.597, "lat": 42.921, "2": "NULL", "3": 23, "4": 55, "5": 89, "6": 164, "7": 285, "8": 491, "9": 661, "10": 837, "11": 870, "12": 942 }, "geometry": { "type": "Point", "coordinates": [ -75.596543220306657, 42.921233547661132 ] } },
{ "type": "Feature", "properties": { "NAME": "Nevada", "lon": -116.655, "lat": 39.356, "2": "NULL", "3": "NULL", "4": 2, "5": 2, "6": 6, "7": 7, "8": 11, "9": 14, "10": 14, "11": 15, "12": 18 }, "geometry": { "type": "Point", "coordinates": [ -116.655248435896681, 39.356185386933987 ] } },
{ "type": "Feature", "properties": { "NAME": "Michigan", "lon": -85.731, "lat": 44.875, "2": "NULL", "3": 1, "4": 2, "5": 3, "6": 7, "7": 10, "8": 17, "9": 45, "10": 60, "11": 62, "12": 63 }, "geometry": { "type": "Point", "coordinates": [ -85.730952991143184, 44.87477377147065 ] } },
{ "type": "Feature", "properties": { "NAME": "Arkansas", "lon": -92.439, "lat": 34.9, "2": 1, "3": 1, "4": 1, "5": 2, "6": 5, "7": 5, "8": 5, "9": 9, "10": 10, "11": 13, "12": 13 }, "geometry": { "type": "Point", "coordinates": [ -92.43924961348506, 34.89978279570046 ] } },
{ "type": "Feature", "properties": { "NAME": "Mississippi", "lon": -89.653, "lat": 32.713, "2": "NULL", "3": "NULL", "4": 2, "5": 3, "6": 3, "7": 5, "8": 14, "9": 20, "10": 23, "11": 23, "12": 23 }, "geometry": { "type": "Point", "coordinates": [ -89.653359422646403, 32.712892123851184 ] } },
{ "type": "Feature", "properties": { "NAME": "Missouri", "lon": -92.477, "lat": 38.368, "2": "NULL", "3": "NULL", "4": 2, "5": 3, "6": 4, "7": 6, "8": 10, "9": 26, "10": 27, "11": 34, "12": 36 }, "geometry": { "type": "Point", "coordinates": [ -92.477422218077166, 38.36763880708429 ] } },
{ "type": "Feature", "properties": { "NAME": "Montana", "lon": -109.645, "lat": 47.033, "2": "NULL", "3": 1, "4": 1, "5": 1, "6": 1, "7": 1, "8": 1, "9": 7, "10": 7, "11": 7, "12": 7 }, "geometry": { "type": "Point", "coordinates": [ -109.645151045697418, 47.033423914753222 ] } },
{ "type": "Feature", "properties": { "NAME": "Kansas", "lon": -98.38, "lat": 38.485, "2": "NULL", "3": "NULL", "4": 1, "5": 1, "6": 2, "7": 5, "8": 8, "9": 13, "10": 15, "11": 17, "12": 17 }, "geometry": { "type": "Point", "coordinates": [ -98.38015544941149, 38.484727052846935 ] } },
{ "type": "Feature", "properties": { "NAME": "Indiana", "lon": -86.282, "lat": 39.92, "2": "NULL", "3": 2, "4": 6, "5": 6, "6": 7, "7": 10, "8": 20, "9": 32, "10": 38, "11": 46, "12": 47 }, "geometry": { "type": "Point", "coordinates": [ -86.281838517229843, 39.919869710484122 ] } },
{ "type": "Feature", "properties": { "NAME": "Puerto Rico", "lon": -66.415, "lat": 18.216, "2": 1, "3": 1, "4": 2, "5": 2, "6": 3, "7": 7, "8": 22, "9": 59, "10": 75, "11": 103, "12": 124 }, "geometry": { "type": "Point", "coordinates": [ -66.41466678402638, 18.215698337311316 ] } },
{ "type": "Feature", "properties": { "NAME": "South Dakota", "lon": -100.23, "lat": 44.436, "2": "NULL", "3": "NULL", "4": "NULL", "5": "NULL", "6": "NULL", "7": "NULL", "8": "NULL", "9": 1, "10": 2, "11": 2, "12": 2 }, "geometry": { "type": "Point", "coordinates": [ -100.230457624160707, 44.436132995709606 ] } },
{ "type": "Feature", "properties": { "NAME": "Massachusetts", "lon": -71.504, "lat": 42.16, "2": 2, "3": 3, "4": 7, "5": 10, "6": 20, "7": 39, "8": 54, "9": 67, "10": 93, "11": 98, "12": 106 }, "geometry": { "type": "Point", "coordinates": [ -71.503972261186121, 42.160092938350971 ] } },
{ "type": "Feature", "properties": { "NAME": "Virginia", "lon": -78.666, "lat": 37.511, "2": 1, "3": 5, "4": 8, "5": 13, "6": 20, "7": 33, "8": 57, "9": 78, "10": 86, "11": 92, "12": 95 }, "geometry": { "type": "Point", "coordinates": [ -78.666356399980486, 37.510871103047975 ] } },
{ "type": "Feature", "properties": { "NAME": "District of Columbia", "lon": -77.016, "lat": 38.905, "2": 3, "3": 3, "4": 3, "5": 3, "6": 6, "7": 7, "8": 10, "9": 11, "10": 25, "11": 25, "12": 27 }, "geometry": { "type": "Point", "coordinates": [ -77.016302670176174, 38.904773714587094 ] } },
{ "type": "Feature", "properties": { "NAME": "Iowa", "lon": -93.5, "lat": 42.075, "2": "NULL", "3": 3, "4": 4, "5": 5, "6": 7, "7": 9, "8": 9, "9": 15, "10": 16, "11": 17, "12": 19 }, "geometry": { "type": "Point", "coordinates": [ -93.500090066591582, 42.074648340655465 ] } },
{ "type": "Feature", "properties": { "NAME": "Arizona", "lon": -111.664, "lat": 34.293, "2": "NULL", "3": "NULL", "4": 1, "5": 1, "6": 2, "7": 6, "8": 10, "9": 22, "10": 36, "11": 42, "12": 51 }, "geometry": { "type": "Point", "coordinates": [ -111.664446293562563, 34.293143622119054 ] } },
{ "type": "Feature", "properties": { "NAME": "Alaska", "lon": -152, "lat": 63.737, "2": "NULL", "3": "NULL", "4": "NULL", "5": "NULL", "6": "NULL", "7": "NULL", "8": "NULL", "9": "NULL", "10": "NULL", "11": "NULL", "12": "NULL" }, "geometry": { "type": "Point", "coordinates": [ -152, 63.737 ] } }
]
}
