{
"type": "FeatureCollection",
"name": "StateCenters_wZika",
"crs": { "type": "name", "properties": { "name": "urn:ogc:def:crs:OGC:1.3:CRS84" } },
"features": [
{ "type": "Feature", "properties": { "name": "West Virginia", "lon": -80.614, "lat": 38.643, "Feb": "null", "Mar": "null", "Apr": 5, "May": 6, "June": 6, "July": 6, "Aug": 9, "Sep": 11, "Oct": 11, "Nov": 11, "Dec": 11 }, "geometry": { "type": "point", "coordinates": [ -80.6137068997092, 38.642567026153976 ] } },
{ "type": "Feature", "properties": { "name": "Florida", "lon": -82.466, "lat": 28.477, "Feb": 9, "Mar": 42, "Apr": 78, "May": 95, "June": 132, "July": 206, "Aug": 322, "Sep": 571, "Oct": 707, "Nov": 708, "Dec": 785 }, "geometry": { "type": "point", "coordinates": [ -82.466418388883767, 28.477058415081203 ] } },
{ "type": "Feature", "properties": { "name": "Illinois", "lon": -89.149, "lat": 40.124, "Feb": 3, "Mar": 5, "Apr": 10, "May": 13, "June": 16, "July": 23, "Aug": 33, "Sep": 51, "Oct": 75, "Nov": 81, "Dec": 85 }, "geometry": { "type": "point", "coordinates": [ -89.148640386728246, 40.124198721633846 ] } },
{ "type": "Feature", "properties": { "name": "Minnesota", "lon": -94.198, "lat": 46.349, "Feb": 1, "Mar": 3, "Apr": 12, "May": 17, "June": 17, "July": 21, "Aug": 29, "Sep": 39, "Oct": 47, "Nov": 53, "Dec": 55 }, "geometry": { "type": "point", "coordinates": [ -94.198348719913639, 46.349289183887969 ] } },
{ "type": "Feature", "properties": { "name": "Maryland", "lon": -76.687, "lat": 38.946, "Feb": "null", "Mar": 3, "Apr": 6, "May": 17, "June": 21, "July": 31, "Aug": 54, "Sep": 89, "Oct": 102, "Nov": 107, "Dec": 125 }, "geometry": { "type": "point", "coordinates": [ -76.687177340980199, 38.946493959175555 ] } },
{ "type": "Feature", "properties": { "name": "Rhode Island", "lon": -71.525, "lat": 41.595, "Feb": "null", "Mar": "null", "Apr": "null", "May": "null", "June": 4, "July": 16, "Aug": 18, "Sep": 29, "Oct": 32, "Nov": 33, "Dec": 35 }, "geometry": { "type": "point", "coordinates": [ -71.524723548751226, 41.594638897784108 ] } },
{ "type": "Feature", "properties": { "name": "Idaho", "lon": -114.659, "lat": 44.389, "Feb": "null", "Mar": "null", "Apr": "null", "May": "null", "June": "null", "July": "null", "Aug": "null", "Sep": 2, "Oct": 3, "Nov": 4, "Dec": 4 }, "geometry": { "type": "point", "coordinates": [ -114.659414931030867, 44.389054943578536 ] } },
{ "type": "Feature", "properties": { "name": "New Hampshire", "lon": -71.571, "lat": 43.68, "Feb": "null", "Mar": "null", "Apr": 2, "May": 3, "June": 4, "July": 4, "Aug": 8, "Sep": 8, "Oct": 10, "Nov": 11, "Dec": 12 }, "geometry": { "type": "point", "coordinates": [ -71.571242793284497, 43.680236921879136 ] } },
{ "type": "Feature", "properties": { "name": "North Carolina", "lon": -79.131, "lat": 35.526, "Feb": "null", "Mar": 2, "Apr": 8, "May": 11, "June": 11, "July": 17, "Aug": 30, "Sep": 52, "Oct": 66, "Nov": 73, "Dec": 83 }, "geometry": { "type": "point", "coordinates": [ -79.13088404008893, 35.52603675739833 ] } },
{ "type": "Feature", "properties": { "name": "Vermont", "lon": -72.663, "lat": 44.075, "Feb": "null", "Mar": "null", "Apr": "null", "May": 1, "June": 1, "July": 2, "Aug": 6, "Sep": 7, "Oct": 7, "Nov": 10, "Dec": 10 }, "geometry": { "type": "point", "coordinates": [ -72.662630812305011, 44.07524794699296 ] } },
{ "type": "Feature", "properties": { "name": "Connecticut", "lon": -72.738, "lat": 41.575, "Feb": "null", "Mar": "null", "Apr": 1, "May": 1, "June": 1, "July": 27, "Aug": 39, "Sep": 58, "Oct": 58, "Nov": 58, "Dec": 58 }, "geometry": { "type": "point", "coordinates": [ -72.738257674179295, 41.575164150071799 ] } },
{ "type": "Feature", "properties": { "name": "Delaware", "lon": -75.452, "lat": 38.995, "Feb": "null", "Mar": 1, "Apr": 3, "May": 3, "June": 4, "July": 5, "Aug": 10, "Sep": 11, "Oct": 15, "Nov": 16, "Dec": 17 }, "geometry": { "type": "point", "coordinates": [ -75.452492578378212, 38.994974845423933 ] } },
{ "type": "Feature", "properties": { "name": "New Mexico", "lon": -106.108, "lat": 34.421, "Feb": "null", "Mar": "null", "Apr": "null", "May": 1, "June": 3, "July": 3, "Aug": 3, "Sep": 4, "Oct": 7, "Nov": 9, "Dec": 9 }, "geometry": { "type": "point", "coordinates": [ -106.108443861830693, 34.4213012848139 ] } },
{ "type": "Feature", "properties": { "name": "California", "lon": -119.664, "lat": 37.215, "Feb": 2, "Mar": 10, "Apr": 29, "May": 40, "June": 48, "July": 69, "Aug": 87, "Sep": 210, "Oct": 277, "Nov": 325, "Dec": 375 }, "geometry": { "type": "point", "coordinates": [ -119.663869752476344, 37.215331504272363 ] } },
{ "type": "Feature", "properties": { "name": "New Jersey", "lon": -74.656, "lat": 40.11, "Feb": 1, "Mar": 1, "Apr": 5, "May": 9, "June": 17, "July": 45, "Aug": 50, "Sep": 91, "Oct": 133, "Nov": 157, "Dec": 164 }, "geometry": { "type": "point", "coordinates": [ -74.655612463530218, 40.110179769133318 ] } },
{ "type": "Feature", "properties": { "name": "Wisconsin", "lon": -89.733, "lat": 44.64, "Feb": "null", "Mar": "null", "Apr": "null", "May": "null", "June": 2, "July": 2, "Aug": 17, "Sep": 24, "Oct": 40, "Nov": 45, "Dec": 48 }, "geometry": { "type": "point", "coordinates": [ -89.732968024083277, 44.639942960668577 ] } },
{ "type": "Feature", "properties": { "name": "Oregon", "lon": -120.605, "lat": 43.94, "Feb": "null", "Mar": 5, "Apr": 6, "May": 6, "June": 6, "July": 7, "Aug": 14, "Sep": 19, "Oct": 27, "Nov": 34, "Dec": 39 }, "geometry": { "type": "point", "coordinates": [ -120.605256220369554, 43.940451387357669 ] } },
{ "type": "Feature", "properties": { "name": "Nebraska", "lon": -99.811, "lat": 41.527, "Feb": "null", "Mar": 2, "Apr": 2, "May": 2, "June": 2, "July": 2, "Aug": 4, "Sep": 8, "Oct": 11, "Nov": 12, "Dec": 13 }, "geometry": { "type": "point", "coordinates": [ -99.81086234957445, 41.527147932702583 ] } },
{ "type": "Feature", "properties": { "name": "Pennsylvania", "lon": -77.839, "lat": 40.897, "Feb": "null", "Mar": 5, "Apr": 12, "May": 17, "June": 23, "July": 35, "Aug": 58, "Sep": 95, "Oct": 132, "Nov": 149, "Dec": 161 }, "geometry": { "type": "point", "coordinates": [ -77.838937995605477, 40.896700502251534 ] } },
{ "type": "Feature", "properties": { "name": "Washington", "lon": -120.593, "lat": 47.412, "Feb": "null", "Mar": 1, "Apr": 2, "May": 2, "June": 4, "July": 9, "Aug": 16, "Sep": 28, "Oct": 34, "Nov": 55, "Dec": 58 }, "geometry": { "type": "point", "coordinates": [ -120.592818956109554, 47.41161850353452 ] } },
{ "type": "Feature", "properties": { "name": "Louisiana", "lon": -91.814, "lat": 30.909, "Feb": "null", "Mar": 1, "Apr": 4, "May": 4, "June": 4, "July": 6, "Aug": 9, "Sep": 26, "Oct": 32, "Nov": 32, "Dec": 35 }, "geometry": { "type": "point", "coordinates": [ -91.814232681001783, 30.909071344936301 ] } },
{ "type": "Feature", "properties": { "name": "Georgia", "lon": -83.427, "lat": 32.639, "Feb": 1, "Mar": 2, "Apr": 11, "May": 13, "June": 17, "July": 29, "Aug": 42, "Sep": 75, "Oct": 86, "Nov": 101, "Dec": 104 }, "geometry": { "type": "point", "coordinates": [ -83.427246263090851, 32.638641836979723 ] } },
{ "type": "Feature", "properties": { "name": "Alabama", "lon": -86.845, "lat": 32.757, "Feb": "null", "Mar": 1, "Apr": 2, "May": 2, "June": 2, "July": 2, "Aug": 11, "Sep": 24, "Oct": 27, "Nov": 30, "Dec": 30 }, "geometry": { "type": "point", "coordinates": [ -86.844520984902459, 32.756879932397702 ] } },
{ "type": "Feature", "properties": { "name": "Utah", "lon": -111.678, "lat": 39.324, "Feb": "null", "Mar": "null", "Apr": 2, "May": 2, "June": 2, "July": 3, "Aug": 6, "Sep": 12, "Oct": 15, "Nov": 15, "Dec": 19 }, "geometry": { "type": "point", "coordinates": [ -111.6782499535977, 39.323768711886409 ] } },
{ "type": "Feature", "properties": { "name": "Ohio", "lon": -82.709, "lat": 40.415, "Feb": "null", "Mar": 5, "Apr": 9, "May": 12, "June": 14, "July": 21, "Aug": 26, "Sep": 36, "Oct": 53, "Nov": 71, "Dec": 75 }, "geometry": { "type": "point", "coordinates": [ -82.709377239123086, 40.415487035729726 ] } },
{ "type": "Feature", "properties": { "name": "Texas", "lon": -99.317, "lat": 31.447, "Feb": 8, "Mar": 15, "Apr": 27, "May": 30, "June": 40, "July": 53, "Aug": 89, "Sep": 161, "Oct": 218, "Nov": 237, "Dec": 268 }, "geometry": { "type": "point", "coordinates": [ -99.31711694240623, 31.447201788145971 ] } },
{ "type": "Feature", "properties": { "name": "Colorado", "lon": -105.548, "lat": 38.999, "Feb": "null", "Mar": 2, "Apr": 2, "May": 2, "June": 4, "July": 10, "Aug": 19, "Sep": 27, "Oct": 36, "Nov": 46, "Dec": 50 }, "geometry": { "type": "point", "coordinates": [ -105.54782080150963, 38.998532031209358 ] } },
{ "type": "Feature", "properties": { "name": "South Carolina", "lon": -80.865, "lat": 33.878, "Feb": "null", "Mar": "null", "Apr": "null", "May": 1, "June": 1, "July": 6, "Aug": 28, "Sep": 31, "Oct": 31, "Nov": 53, "Dec": 54 }, "geometry": { "type": "point", "coordinates": [ -80.864588087759103, 33.877749405611375 ] } },
{ "type": "Feature", "properties": { "name": "Oklahoma", "lon": -97.508, "lat": 35.583, "Feb": "null", "Mar": "null", "Apr": 3, "May": 4, "June": 5, "July": 12, "Aug": 13, "Sep": 20, "Oct": 27, "Nov": 29, "Dec": 29 }, "geometry": { "type": "point", "coordinates": [ -97.508242765265152, 35.583466439803935 ] } },
{ "type": "Feature", "properties": { "name": "Tennessee", "lon": -86.343, "lat": 35.843, "Feb": "null", "Mar": 1, "Apr": 1, "May": 2, "June": 4, "July": 10, "Aug": 22, "Sep": 38, "Oct": 52, "Nov": 55, "Dec": 58 }, "geometry": { "type": "point", "coordinates": [ -86.343412305427435, 35.842980139111638 ] } },
{ "type": "Feature", "properties": { "name": "Wyoming", "lon": -107.551, "lat": 43.0, "Feb": "null", "Mar": "null", "Apr": "null", "May": "null", "June": "null", "July": "null", "Aug": "null", "Sep": "null", "Oct": 2, "Nov": 2, "Dec": 2 }, "geometry": { "type": "point", "coordinates": [ -107.551395881916832, 42.999538281945327 ] } },
{ "type": "Feature", "properties": { "name": "Hawaii", "lon": -158.11, "lat": 20.995, "Feb": 3, "Mar": 4, "Apr": 5, "May": 7, "June": 10, "July": 10, "Aug": 10, "Sep": 11, "Oct": 14, "Nov": 14, "Dec": 14 }, "geometry": { "type": "point", "coordinates": [ -158.109973806952297, 20.995111199068841 ] } },
{ "type": "Feature", "properties": { "name": "North Dakota", "lon": -100.469, "lat": 47.446, "Feb": "null", "Mar": "null", "Apr": "null", "May": "null", "June": "null", "July": "null", "Aug": 1, "Sep": 1, "Oct": 2, "Nov": 2, "Dec": 2 }, "geometry": { "type": "point", "coordinates": [ -100.469318207128438, 47.446314063606295 ] } },
{ "type": "Feature", "properties": { "name": "Kentucky", "lon": -85.291, "lat": 37.527, "Feb": "null", "Mar": "null", "Apr": 3, "May": 5, "June": 6, "July": 7, "Aug": 10, "Sep": 20, "Oct": 24, "Nov": 24, "Dec": 24 }, "geometry": { "type": "point", "coordinates": [ -85.290558439731171, 37.526614847430928 ] } },
{ "type": "Feature", "properties": { "name": "New York", "lon": -75.597, "lat": 42.921, "Feb": "null", "Mar": 23, "Apr": 55, "May": 89, "June": 164, "July": 285, "Aug": 491, "Sep": 661, "Oct": 837, "Nov": 870, "Dec": 942 }, "geometry": { "type": "point", "coordinates": [ -75.596543220306657, 42.921233547661132 ] } },
{ "type": "Feature", "properties": { "name": "Nevada", "lon": -116.655, "lat": 39.356, "Feb": "null", "Mar": "null", "Apr": 2, "May": 2, "June": 6, "July": 7, "Aug": 11, "Sep": 14, "Oct": 14, "Nov": 15, "Dec": 18 }, "geometry": { "type": "point", "coordinates": [ -116.655248435896681, 39.356185386933987 ] } },
{ "type": "Feature", "properties": { "name": "Michigan", "lon": -85.731, "lat": 44.875, "Feb": "null", "Mar": 1, "Apr": 2, "May": 3, "June": 7, "July": 10, "Aug": 17, "Sep": 45, "Oct": 60, "Nov": 62, "Dec": 63 }, "geometry": { "type": "point", "coordinates": [ -85.730952991143184, 44.87477377147065 ] } },
{ "type": "Feature", "properties": { "name": "Arkansas", "lon": -92.439, "lat": 34.9, "Feb": 1, "Mar": 1, "Apr": 1, "May": 2, "June": 5, "July": 5, "Aug": 5, "Sep": 9, "Oct": 10, "Nov": 13, "Dec": 13 }, "geometry": { "type": "point", "coordinates": [ -92.43924961348506, 34.89978279570046 ] } },
{ "type": "Feature", "properties": { "name": "Mississippi", "lon": -89.653, "lat": 32.713, "Feb": "null", "Mar": "null", "Apr": 2, "May": 3, "June": 3, "July": 5, "Aug": 14, "Sep": 20, "Oct": 23, "Nov": 23, "Dec": 23 }, "geometry": { "type": "point", "coordinates": [ -89.653359422646403, 32.712892123851184 ] } },
{ "type": "Feature", "properties": { "name": "Missouri", "lon": -92.477, "lat": 38.368, "Feb": "null", "Mar": "null", "Apr": 2, "May": 3, "June": 4, "July": 6, "Aug": 10, "Sep": 26, "Oct": 27, "Nov": 34, "Dec": 36 }, "geometry": { "type": "point", "coordinates": [ -92.477422218077166, 38.36763880708429 ] } },
{ "type": "Feature", "properties": { "name": "Montana", "lon": -109.645, "lat": 47.033, "Feb": "null", "Mar": 1, "Apr": 1, "May": 1, "June": 1, "July": 1, "Aug": 1, "Sep": 7, "Oct": 7, "Nov": 7, "Dec": 7 }, "geometry": { "type": "point", "coordinates": [ -109.645151045697418, 47.033423914753222 ] } },
{ "type": "Feature", "properties": { "name": "Kansas", "lon": -98.38, "lat": 38.485, "Feb": "null", "Mar": "null", "Apr": 1, "May": 1, "June": 2, "July": 5, "Aug": 8, "Sep": 13, "Oct": 15, "Nov": 17, "Dec": 17 }, "geometry": { "type": "point", "coordinates": [ -98.38015544941149, 38.484727052846935 ] } },
{ "type": "Feature", "properties": { "name": "Indiana", "lon": -86.282, "lat": 39.92, "Feb": "null", "Mar": 2, "Apr": 6, "May": 6, "June": 7, "July": 10, "Aug": 20, "Sep": 32, "Oct": 38, "Nov": 46, "Dec": 47 }, "geometry": { "type": "point", "coordinates": [ -86.281838517229843, 39.919869710484122 ] } },
{ "type": "Feature", "properties": { "name": "Puerto Rico", "lon": -66.415, "lat": 18.216, "Feb": 1, "Mar": 1, "Apr": 2, "May": 2, "June": 3, "July": 7, "Aug": 22, "Sep": 59, "Oct": 75, "Nov": 103, "Dec": 124 }, "geometry": { "type": "point", "coordinates": [ -66.41466678402638, 18.215698337311316 ] } },
{ "type": "Feature", "properties": { "name": "South Dakota", "lon": -100.23, "lat": 44.436, "Feb": "null", "Mar": "null", "Apr": "null", "May": "null", "June": "null", "July": "null", "Aug": "null", "Sep": 1, "Oct": 2, "Nov": 2, "Dec": 2 }, "geometry": { "type": "point", "coordinates": [ -100.230457624160707, 44.436132995709606 ] } },
{ "type": "Feature", "properties": { "name": "Massachusetts", "lon": -71.504, "lat": 42.16, "Feb": 2, "Mar": 3, "Apr": 7, "May": 10, "June": 20, "July": 39, "Aug": 54, "Sep": 67, "Oct": 93, "Nov": 98, "Dec": 106 }, "geometry": { "type": "point", "coordinates": [ -71.503972261186121, 42.160092938350971 ] } },
{ "type": "Feature", "properties": { "name": "Virginia", "lon": -78.666, "lat": 37.511, "Feb": 1, "Mar": 5, "Apr": 8, "May": 13, "June": 20, "July": 33, "Aug": 57, "Sep": 78, "Oct": 86, "Nov": 92, "Dec": 95 }, "geometry": { "type": "point", "coordinates": [ -78.666356399980486, 37.510871103047975 ] } },
{ "type": "Feature", "properties": { "name": "District of Columbia", "lon": -77.016, "lat": 38.905, "Feb": 3, "Mar": 3, "Apr": 3, "May": 3, "June": 6, "July": 7, "Aug": 10, "Sep": 11, "Oct": 25, "Nov": 25, "Dec": 27 }, "geometry": { "type": "point", "coordinates": [ -77.016302670176174, 38.904773714587094 ] } },
{ "type": "Feature", "properties": { "name": "Iowa", "lon": -93.5, "lat": 42.075, "Feb": "null", "Mar": 3, "Apr": 4, "May": 5, "June": 7, "July": 9, "Aug": 9, "Sep": 15, "Oct": 16, "Nov": 17, "Dec": 19 }, "geometry": { "type": "point", "coordinates": [ -93.500090066591582, 42.074648340655465 ] } },
{ "type": "Feature", "properties": { "name": "Arizona", "lon": -111.664, "lat": 34.293, "Feb": "null", "Mar": "null", "Apr": 1, "May": 1, "June": 2, "July": 6, "Aug": 10, "Sep": 22, "Oct": 36, "Nov": 42, "Dec": 51 }, "geometry": { "type": "point", "coordinates": [ -111.664446293562563, 34.293143622119054 ] } },
{ "type": "Feature", "properties": { "name": "Alaska", "lon": -151.601, "lat": 63.737, "Feb": "null", "Mar": "null", "Apr": "null", "May": "null", "June": "null", "July": "null", "Aug": "null", "Sep": "null", "Oct": "null", "Nov": "null", "Dec": "null" }, "geometry": { "type": "point", "coordinates": [ -152.8397334, 63.3473560 ] } }
]
}
